{
  "puertos": [
    {"id": "ari", "nombre": "Arica", "tipo": "puerto_comercial", "region": "Arica y Parinacota", "provincia": "Arica", "latitud": -18.4785, "longitud": -70.2983, "sonda_minima": 10.5, "capitania": "Capitanía de Puerto de Arica", "vhf_emergencia": "Ch 16", "descripcion": "Puerto comercial principal región I. Operaciones 24h."},
    {"id": "iquq", "nombre": "Iquique", "tipo": "puerto_comercial", "region": "Tarapacá", "provincia": "Iquique", "latitud": -20.2208, "longitud": -70.1431, "sonda_minima": 10.8, "capitania": "Capitanía de Puerto de Iquique", "vhf_emergencia": "Ch 16", "descripcion": "Puerto comercial Tarapacá. Terminal pesquero."},
    {"id": "ant", "nombre": "Antofagasta", "tipo": "puerto_comercial", "region": "Antofagasta", "provincia": "Antofagasta", "latitud": -23.6345, "longitud": -70.3997, "sonda_minima": 12.0, "capitania": "Capitanía de Puerto de Antofagasta", "vhf_emergencia": "Ch 16", "descripcion": "Puerto comercial región II. Minería + contenedores."},
    {"id": "tab", "nombre": "Tocopilla", "tipo": "puerto_comercial", "region": "Antofagasta", "provincia": "Tocopilla", "latitud": -22.0919, "longitud": -70.1918, "sonda_minima": 9.0, "capitania": "Capitanía de Puerto de Tocopilla", "vhf_emergencia": "Ch 16", "descripcion": "Puerto secundario Antofagasta. Carga general."},
    {"id": "chl", "nombre": "Chañaral", "tipo": "puerto_local", "region": "Atacama", "provincia": "Chañaral", "latitud": -26.3426, "longitud": -70.6114, "sonda_minima": 8.5, "capitania": "Capitanía de Puerto de Chañaral", "vhf_emergencia": "Ch 16", "descripcion": "Puerto local Atacama. Carga general y pescado."},
    {"id": "cal", "nombre": "Caldera", "tipo": "puerto_comercial", "region": "Atacama", "provincia": "Copiapó", "latitud": -27.0657, "longitud": -70.7837, "sonda_minima": 9.5, "capitania": "Capitanía de Puerto de Caldera", "vhf_emergencia": "Ch 16", "descripcion": "Puerto comercial Atacama. Principal zona norte."},
    {"id": "cqu", "nombre": "Coquimbo", "tipo": "puerto_comercial", "region": "Coquimbo", "provincia": "Elqui", "latitud": -29.9533, "longitud": -71.3426, "sonda_minima": 8.0, "capitania": "Capitanía de Puerto de Coquimbo", "vhf_emergencia": "Ch 16", "descripcion": "Puerto comercial región IV. Contenedores y pescado."},
    {"id": "val", "nombre": "Valparaíso", "tipo": "puerto_comercial", "region": "Valparaíso", "provincia": "Valparaíso", "latitud": -33.0458, "longitud": -71.6196, "sonda_minima": 12.5, "capitania": "Capitanía de Puerto de Valparaíso", "vhf_emergencia": "Ch 16", "descripcion": "Principal puerto comercial central Chile. Hub regional."},
    {"id": "san", "nombre": "San Antonio", "tipo": "puerto_comercial", "region": "Valparaíso", "provincia": "San Antonio", "latitud": -33.5975, "longitud": -71.6159, "sonda_minima": 11.0, "capitania": "Capitanía de Puerto de San Antonio", "vhf_emergencia": "Ch 16", "descripcion": "Puerto comercial Valparaíso. Segundo en importancia nacional."},
    {"id": "san2", "nombre": "Santo Domingo", "tipo": "puerto_local", "region": "Valparaíso", "provincia": "San Antonio", "latitud": -33.6483, "longitud": -71.5908, "sonda_minima": 6.0, "capitania": "Capitanía de Puerto de Santo Domingo", "vhf_emergencia": "Ch 16", "descripcion": "Puerto turístico y pesquero."},
    {"id": "tls", "nombre": "Talcahuano", "tipo": "puerto_comercial", "region": "Bío Bío", "provincia": "Concepción", "latitud": -36.7167, "longitud": -72.6167, "sonda_minima": 10.0, "capitania": "Capitanía de Puerto de Talcahuano", "vhf_emergencia": "Ch 16", "descripcion": "Puerto comercial zona sur-central. Naval + comercial."},
    {"id": "lta", "nombre": "Lota", "tipo": "puerto_local", "region": "Bío Bío", "provincia": "Concepción", "latitud": -37.0833, "longitud": -73.1667, "sonda_minima": 5.5, "capitania": "Capitanía de Puerto de Lota", "vhf_emergencia": "Ch 16", "descripcion": "Puerto histórico pesquero."},
    {"id": "tol", "nombre": "Toltén", "tipo": "puerto_local", "region": "La Araucanía", "provincia": "Cautín", "latitud": -38.2594, "longitud": -73.1028, "sonda_minima": 4.5, "capitania": "Capitanía de Puerto de Toltén", "vhf_emergencia": "Ch 16", "descripcion": "Puerto pesquero artesanal."},
    {"id": "pll", "nombre": "Puerto Montt", "tipo": "puerto_comercial", "region": "Los Lagos", "provincia": "Llanquihue", "latitud": -41.4657, "longitud": -72.9429, "sonda_minima": 5.27, "capitania": "Capitanía de Puerto de Puerto Montt", "vhf_emergencia": "Ch 16", "descripcion": "Puerto principal austral. Acuicultura y general."},
    {"id": "pun", "nombre": "Punta Arenas", "tipo": "puerto_comercial", "region": "Magallanes", "provincia": "Última Esperanza", "latitud": -53.1604, "longitud": -70.9168, "sonda_minima": 10.0, "capitania": "Capitanía de Puerto de Punta Arenas", "vhf_emergencia": "Ch 16", "descripcion": "Puerto terminal sur. Puerta Antártida y Patagonia."},
    {"id": "prt", "nombre": "Puerto Natales", "tipo": "puerto_local", "region": "Magallanes", "provincia": "Última Esperanza", "latitud": -51.7256, "longitud": -72.5146, "sonda_minima": 7.5, "capitania": "Capitanía de Puerto de Puerto Natales", "vhf_emergencia": "Ch 16", "descripcion": "Puerto turístico y pesquero sur."},
    {"id": "queln", "nombre": "Quellón", "tipo": "puerto_local", "region": "Los Lagos", "provincia": "Chiloé", "latitud": -43.1200, "longitud": -73.6204, "sonda_minima": 3.8, "capitania": "Capitanía de Puerto de Quellón", "vhf_emergencia": "Ch 16", "descripcion": "Terminal sur Los Lagos. Transbordador Punta Arenas."},
    {"id": "cst", "nombre": "Castro", "tipo": "puerto_local", "region": "Los Lagos", "provincia": "Chiloé", "latitud": -42.4833, "longitud": -73.7667, "sonda_minima": 4.0, "capitania": "Capitanía de Puerto de Castro", "vhf_emergencia": "Ch 16", "descripcion": "Puerto local Chiloé. Pescado y conectividad."},
    {"id": "anc", "nombre": "Ancud", "tipo": "puerto_local", "region": "Los Lagos", "provincia": "Chiloé", "latitud": -41.8667, "longitud": -74.25, "sonda_minima": 4.2, "capitania": "Capitanía de Puerto de Ancud", "vhf_emergencia": "Ch 16", "descripcion": "Puerto norte Chiloé. Golfo de Ancud."},
    {"id": "los", "nombre": "Los Ángeles", "tipo": "puerto_local", "region": "Bío Bío", "provincia": "Arauco", "latitud": -37.4667, "longitud": -72.3167, "sonda_minima": 6.0, "capitania": "Capitanía de Puerto de Los Ángeles", "vhf_emergencia": "Ch 16", "descripcion": "Puerto pesquero artesanal."},
    {"id": "ose", "nombre": "Osorno", "tipo": "puerto_local", "region": "Los Lagos", "provincia": "Osorno", "latitud": -40.5833, "longitud": -73.1333, "sonda_minima": 3.5, "capitania": "Capitanía de Puerto de Osorno", "vhf_emergencia": "Ch 16", "descripcion": "Puerto fluvial Río Rahue."},
    {"id": "prt2", "nombre": "Puerto Varas", "tipo": "puerto_local", "region": "Los Lagos", "provincia": "Llanquihue", "latitud": -41.3194, "longitud": -72.9669, "sonda_minima": 4.5, "capitania": "Capitanía de Puerto de Puerto Varas", "vhf_emergencia": "Ch 16", "descripcion": "Puerto turístico Los Lagos."},
    {"id": "chit", "nombre": "Chaitén", "tipo": "rampa_conectividad", "region": "Los Lagos", "provincia": "Palena", "latitud": -42.6320, "longitud": -72.8059, "sonda_minima": 3.5, "capitania": "Capitanía de Puerto de Chaitén", "vhf_emergencia": "Ch 16", "descripcion": "Rampa conectividad Carretera Austral."},
    {"id": "cgs", "nombre": "Caleta Gonzalo", "tipo": "caleta_pesquera", "region": "Aysén", "provincia": "Palena", "latitud": -43.2, "longitud": -72.0, "sonda_minima": 3.2, "capitania": "Capitanía de Puerto de Chaitén", "vhf_emergencia": "Ch 16", "descripcion": "Caleta Carretera Austral."}
  ],
  "metadata": {
    "version": "2.0",
    "created": "2026-07-12",
    "tipo": "nacional_completo",
    "fuente": "DIRECTEMAR, IDE Chile, DOP",
    "cobertura": "Arica a Punta Arenas",
    "proyeccion": "WGS84 (EPSG:4326)",
    "registro_total": 25,
    "notas": "BD nacional MVP. Incluye puertos comerciales principales + locales estratégicos. Sondas referenciales. Consultar SITPORT para restricciones operacionales vigentes."
  }
}
